[
    {"id": 1,
    "name": "Beto Carrero World",
    "description":
    "top tirando a comida",
    "address": "R. Inácio Francisco de Souza, 1597 Praia de Armação - Penha/SC - Brasil CEP: 88385-000",
    "time": "A bilheteria abre 7:30, mas o parque propriamente está aberto das 10hrs às 19hrs",
    "images": [],
    "logo": "https://seeklogo.com/images/B/beto-carrero-logo-AE3B951FFD-seeklogo.com.png",
    "video": "f_73sawzBOc",
    "websiteLink": "https://www.betocarrero.com.br/",
    "socialMediaLink": {"insta": "https://www.instagram.com/betocarrero/?hl=pt-br",
                        "tiktok": "https://www.tiktok.com/@betocarreroworld"},
    "ticketPrice": "de R$99,00 a R$ 134,00; a depender da data",
    "ticketLink": "https://www.betocarrero.com.br/passaportes?area=passaporte%22&gclid=EAIaIQobChMI5e2BzOvugAMVC1KRCh2nWgp4EAAYASAAEgIVp_D_BwE",
    "phone": "04732612222",
    "email": "suporteonline@betocarrero.com.br",
    "mapRegion": {"latitude": -26.799975,
                  "longitude": -48.626860,
                  "latitudeDelta": 0.0922,
                  "longitudeDelta": 0.0421}},

    {"id": 2,
    "name": "Snow Land",
    "description": "Frio pra krl",
    "address": "RS-235, Rua Linha Carazal, 9009 Gramado/RS - 95670-000",
    "time": "das 10hrs às 17hrs",
    "images": [],
    "logo": "https://www.snowland.com.br/static/assets/images/snow-branco.svg",
    "video": "gMNwPfsatms",
    "websiteLink": "https://www.snowland.com.br/",
    "socialMediaLink": {"insta": "https://www.instagram.com/snowlandgramado/",
                        "tiktok": "https://www.tiktok.com/@snowlandgramado"},
    "ticketPrice": "de R$ 120 à R$ 330",
    "ticketLink": "https://www.snowland.com.br/ingressos/",
    "phone": "08008003737",
    "email": "eventos.parques@gramadoparks.com",
    "mapRegion": {"latitude": -29.402827,
                  "longitude": -50.932666,
                  "latitudeDelta": 0.0922,
                  "longitudeDelta": 0.0421}},

    {"id": 3,
    "name": "Aqua Show",
    "description": "Nunca fui, mas quero ir ainda",
    "address": "Rodovia Armando Calil Bullos, SC-403, 3868 - Ingleses Norte, Florianópolis - SC, 88058-000",
    "time": "Das 10 hrs às 17 hrs",
    "images": [],
    "logo": "https://www.aguashowpark.com.br/wp-content/uploads/logo-rodape-1.png",
    "video": "lFG-ihSXuVo",
    "websiteLink": "https://www.aguashowpark.com.br/",
    "socialMediaLink": {"insta": "https://www.instagram.com/aguashowpark/",
                        "tiktok": "https://www.tiktok.com/@aquashowtickets"},
    "ticketPrice": "R$ 70 na bilheteria e R$ 65 virtual",
    "ticketLink": "https://www.aguashowpark.com.br/",
    "phone": "04833692354",
    "email": "contato@aguashowpark.com.br ",
    "mapRegion": {"latitude": -27.444733,
                  "longitude": -48.419872,
                  "latitudeDelta": 0.0922,
                  "longitudeDelta": 0.0421}},

    {"id": 4,
    "name": "Parque Terra Mágica Florybal",
    "description": "Meio merda pra falar a vdd",
    "address": "Rodovia RS-466, 1630 - Jardim dos Pinheiros II, Canela - RS, 95680-000",
    "time": "Das 09:00 às 16:30",
    "images": [],
    "logo": "https://parqueterramagicaflorybal.com.br/wp-content/uploads/2023/02/logo-ptmf-bege.svg",
    "video": "T6rKolTSbV0",
    "websiteLink": "https://parqueterramagicaflorybal.com.br/pt",
    "socialMediaLink": {"insta": "https://www.instagram.com/parqueterramagicaflorybal/",
                        "tiktok": "https://www.tiktok.com/@terramagicaflorybal"},
    "ticketPrice": "R$ 160",
    "ticketLink": "https://ingresso.parqueterramagicaflorybal.com.br/passaporte-terra-magica-florybal",
    "phone": "05432825050",
    "email": "divulgacao@parqueterramagicaflorybal.com.br",
    "mapRegion": {"latitude": -29.348525,
                  "longitude": -50.830352,
                  "latitudeDelta": 0.0922,
                  "longitudeDelta": 0.0421}},


    {"id": 5,
    "name": "Hopi Hari",
    "description": "Nunca fui pra SP, graças a Deus",
    "address": "Rod. dos Bandeirantes, km 72 - Moinho, Vinhedo - SP, 13288-390",
    "time": "Das 11:00 hrs às 20:30 hrs",
    "images": [],
    "logo": "https://i0.statig.com.br/hopihari/img/HopiHariBandeira.png",
    "video": "wAChwCP-_XA",
    "websiteLink": "https://www.hopihari.com.br/",
    "socialMediaLink": {"insta": "https://www.instagram.com/hopihari/",
                        "tiktok": "https://www.tiktok.com/discover/hopi-Hari?lang=pt-BR"},
    "ticketPrice": "De R$ 129,90 à R$ 149,90",
    "ticketLink": "https://www.hopihari.com.br/calendario",
    "phone": "01142104000",
    "email": "fale@hopiharicorp.com.br",
    "mapRegion": {"latitude": -23.098260,
                  "longitude": -47.008263,
                  "latitudeDelta": 0.0922,
                  "longitudeDelta": 0.0421}}

  ]